{
  "type": "FeatureCollection",
  "generator": "overpass-turbo",
  "copyright": "The data included in this document is from www.openstreetmap.org. The data is made available under ODbL.",
  "timestamp": "2024-08-23T22:11:42Z",
  "features": [
    {
      "type": "Feature",
      "properties": {
        "@id": "way/23653372",
        "addr:housenumber": "2",
        "addr:street": "Савски трг",
        "building": "train_station",
        "building:levels": "2",
        "description": "The train station was closed on July 1, 2018. The new main train station is Beograd Centar (Prokop).",
        "disused:railway": "station",
        "heritage": "2",
        "heritage:RS:criteria": "great",
        "heritage:RS:inscription_date": "1983-03-28",
        "heritage:RS:jurisdiction": "Завод за заштиту споменика културе града Београда",
        "heritage:RS:name": "Железничка станица",
        "heritage:website": "https://nasledje.gov.rs/index.cfm/spomenici/pregled_spomenika?spomenik_id=107864",
        "name": "Стара железничка станица Београд",
        "name:en": "The Old Belgrade Railway Station",
        "name:sr": "Стара железничка станица Београд",
        "name:sr-Latn": "Stara železnička stanica Beograd",
        "note": "Stanična zgrada će biti prenamenjena u Istorijski muzej Srbije. The station building is going to be converted to Historical Museum of Serbia.",
        "protect_class": "22",
        "ref:RS:kucni_broj": "3205932",
        "ref:RS:nkd": "SK418",
        "roof:levels": "0",
        "wikidata": "Q815559",
        "wikimedia_commons": "Category:Belgrade Main railway station",
        "wikipedia": "sr:Железничка станица Београд–главна",
        "@geometry": "center"
      },
      "geometry": {
        "type": "Point",
        "coordinates": [
          20.4556558,
          44.8086095
        ]
      },
      "id": "way/23653372"
    },
    {
      "type": "Feature",
      "properties": {
        "@id": "way/39171597",
        "building": "train_station",
        "disused:railway": "station",
        "name": "Željeznička stanica Brčko",
        "@geometry": "center"
      },
      "geometry": {
        "type": "Point",
        "coordinates": [
          18.8046487,
          44.8661177
        ]
      },
      "id": "way/39171597"
    },
    {
      "type": "Feature",
      "properties": {
        "@id": "way/78942653",
        "area": "yes",
        "disused": "yes",
        "disused:railway": "station",
        "name": "Rudnik željezne rude Tomašica",
        "@geometry": "center"
      },
      "geometry": {
        "type": "Point",
        "coordinates": [
          16.7891149,
          44.8619472
        ]
      },
      "id": "way/78942653"
    },
    {
      "type": "Feature",
      "properties": {
        "@id": "node/82615491",
        "name": "Reljevo",
        "railway": "halt"
      },
      "geometry": {
        "type": "Point",
        "coordinates": [
          18.3287801,
          43.8887532
        ]
      },
      "id": "node/82615491"
    },
    {
      "type": "Feature",
      "properties": {
        "@id": "node/82677901",
        "gauge:1891-08-01-1966-11-05": "760",
        "gauge:1966-11-26-": "1435",
        "name": "Blažuj",
        "public_transport": "station",
        "railway": "station",
        "train": "yes"
      },
      "geometry": {
        "type": "Point",
        "coordinates": [
          18.2587001,
          43.8384649
        ]
      },
      "id": "node/82677901"
    },
    {
      "type": "Feature",
      "properties": {
        "@id": "node/83744144",
        "name": "Ilijaš",
        "public_transport": "station",
        "railway": "halt",
        "train": "yes"
      },
      "geometry": {
        "type": "Point",
        "coordinates": [
          18.2640957,
          43.9565241
        ]
      },
      "id": "node/83744144"
    },
    {
      "type": "Feature",
      "properties": {
        "@id": "node/84194806",
        "name": "Lješevo",
        "railway": "halt"
      },
      "geometry": {
        "type": "Point",
        "coordinates": [
          18.2290563,
          43.9899834
        ]
      },
      "id": "node/84194806"
    },
    {
      "type": "Feature",
      "properties": {
        "@id": "way/91028789",
        "building": "yes",
        "disused": "yes",
        "disused:railway": "station",
        "name": "Слатина",
        "name:sr": "Слатина",
        "name:sr-Latn": "Slatina",
        "@geometry": "center"
      },
      "geometry": {
        "type": "Point",
        "coordinates": [
          22.1542933,
          44.0491927
        ]
      },
      "id": "way/91028789"
    },
    {
      "type": "Feature",
      "properties": {
        "@id": "way/142937398",
        "building": "train_station",
        "disused:railway": "station",
        "name": "Stacioni Hekurudhor",
        "name:sr": "Железничка станица Призрен",
        "name:sr-Latn": "Železnička stanica Prizren",
        "@geometry": "center"
      },
      "geometry": {
        "type": "Point",
        "coordinates": [
          20.7283928,
          42.2138707
        ]
      },
      "id": "way/142937398"
    },
    {
      "type": "Feature",
      "properties": {
        "@id": "way/144941930",
        "addr:housenumber": "29",
        "addr:postcode": "21208",
        "addr:street": "Железничка",
        "building": "train_station",
        "disused:railway": "station",
        "name": "Сремска Каменица",
        "name:sr": "Сремска Каменица",
        "name:sr-Latn": "Sremska Kamenica",
        "ref:RS:kucni_broj": "5511531",
        "@geometry": "center"
      },
      "geometry": {
        "type": "Point",
        "coordinates": [
          19.8481199,
          45.2223216
        ]
      },
      "id": "way/144941930"
    },
    {
      "type": "Feature",
      "properties": {
        "@id": "way/148130671",
        "building": "train_station",
        "disused:railway": "station",
        "name": "Stacioni i Trenit Mitrovicë",
        "name:sr": "Железничка станица Косовска Митровица",
        "@geometry": "center"
      },
      "geometry": {
        "type": "Point",
        "coordinates": [
          20.8747874,
          42.892958
        ]
      },
      "id": "way/148130671"
    },
    {
      "type": "Feature",
      "properties": {
        "@id": "way/169985885",
        "building": "train_station",
        "name": "Semizovac",
        "public_transport": "station",
        "railway": "station",
        "train": "yes",
        "@geometry": "center"
      },
      "geometry": {
        "type": "Point",
        "coordinates": [
          18.3187783,
          43.9161647
        ]
      },
      "id": "way/169985885"
    },
    {
      "type": "Feature",
      "properties": {
        "@id": "way/175188800",
        "building": "yes",
        "historic": "railway_station",
        "historic:railway": "station",
        "old_name:en:1908-1960": "Virpazar Station",
        "operator:de:1908-1960": "Antivari-Bahn",
        "operator:it:1908-1960": "Compagnia di Antivari",
        "wikipedia": "de:Antivari-Bahn",
        "@geometry": "center"
      },
      "geometry": {
        "type": "Point",
        "coordinates": [
          19.0918564,
          42.2450238
        ]
      },
      "id": "way/175188800"
    },
    {
      "type": "Feature",
      "properties": {
        "@id": "way/191814214",
        "addr:housenumber": "31",
        "addr:street": "Hekurudha",
        "building": "train_station",
        "disused": "yes",
        "disused:railway": "station",
        "name": "Stacioni Hekurudhor Xërxe",
        "@geometry": "center"
      },
      "geometry": {
        "type": "Point",
        "coordinates": [
          20.5696542,
          42.3546493
        ]
      },
      "id": "way/191814214"
    },
    {
      "type": "Feature",
      "properties": {
        "@id": "way/196602523",
        "addr:housenumber": "1",
        "addr:street": "Железничка колонија",
        "building": "train_station",
        "name": "Чачак",
        "name:de": "Zazach",
        "name:en": "Cacak",
        "name:sr": "Чачак",
        "name:sr-Latn": "Čačak",
        "old_name:de": "Zazach",
        "public_transport": "station",
        "railway": "station",
        "ref:RS:kucni_broj": "5775392",
        "wikidata": "Q29653366",
        "@geometry": "center"
      },
      "geometry": {
        "type": "Point",
        "coordinates": [
          20.3559837,
          43.8898937
        ]
      },
      "id": "way/196602523"
    },
    {
      "type": "Feature",
      "properties": {
        "@id": "way/207238190",
        "building": "train_station",
        "disused:railway": "station",
        "name": "Željeznička stanica Banja stijena",
        "@geometry": "center"
      },
      "geometry": {
        "type": "Point",
        "coordinates": [
          18.8970525,
          43.7695902
        ]
      },
      "id": "way/207238190"
    },
    {
      "type": "Feature",
      "properties": {
        "@id": "way/241908609",
        "building": "yes",
        "disused:railway": "halt",
        "name": "Goleš",
        "@geometry": "center"
      },
      "geometry": {
        "type": "Point",
        "coordinates": [
          19.4789893,
          43.6583791
        ]
      },
      "id": "way/241908609"
    },
    {
      "type": "Feature",
      "properties": {
        "@id": "node/259994342",
        "name": "Дражањ-Шепшин",
        "name:sr": "Дражањ-Шепшин",
        "name:sr-Latn": "Dražanj-Šepšin",
        "railway": "halt"
      },
      "geometry": {
        "type": "Point",
        "coordinates": [
          20.6890167,
          44.5711298
        ]
      },
      "id": "node/259994342"
    },
    {
      "type": "Feature",
      "properties": {
        "@id": "node/259997361",
        "name": "Рипањ",
        "name:sr": "Рипањ",
        "name:sr-Latn": "Ripanj",
        "public_transport": "station",
        "railway": "station",
        "train": "yes",
        "wikidata": "Q31182308",
        "wikipedia": "sr:Железничка станица Рипањ"
      },
      "geometry": {
        "type": "Point",
        "coordinates": [
          20.5069485,
          44.6623345
        ]
      },
      "id": "node/259997361"
    },
    {
      "type": "Feature",
      "properties": {
        "@id": "way/262725556",
        "building": "train_station",
        "disused:railway": "station",
        "name": "Падинска Скела",
        "name:sr": "Падинска Скела",
        "name:sr-Latn": "Padinska Skela",
        "@geometry": "center"
      },
      "geometry": {
        "type": "Point",
        "coordinates": [
          20.4276244,
          44.9312429
        ]
      },
      "id": "way/262725556"
    },
    {
      "type": "Feature",
      "properties": {
        "@id": "way/262730604",
        "addr:housenumber": "62",
        "addr:street": "Глогоњски рит",
        "building": "apartments",
        "disused:railway": "station",
        "name": "Глогоњски Рит",
        "name:sr": "Глогоњски Рит",
        "name:sr-Latn": "Glogonjski Rit",
        "ref:RS:kucni_broj": "3188199",
        "@geometry": "center"
      },
      "geometry": {
        "type": "Point",
        "coordinates": [
          20.4767919,
          44.9346799
        ]
      },
      "id": "way/262730604"
    },
    {
      "type": "Feature",
      "properties": {
        "@id": "way/262752077",
        "addr:housenumber": "1b",
        "addr:street": "Железничка",
        "building": "train_station",
        "disused:railway": "station",
        "name": "Банатско Јасеново",
        "name:sr": "Банатско Јасеново",
        "name:sr-Latn": "Banatsko Jasenovo",
        "public_transport": "station",
        "ref:RS:kucni_broj": "6201235",
        "@geometry": "center"
      },
      "geometry": {
        "type": "Point",
        "coordinates": [
          21.3185733,
          44.9401122
        ]
      },
      "id": "way/262752077"
    },
    {
      "type": "Feature",
      "properties": {
        "@id": "node/276675368",
        "name": "Zlatica",
        "name:sr": "Златица",
        "railway": "halt",
        "wikidata": "Q111993513"
      },
      "geometry": {
        "type": "Point",
        "coordinates": [
          19.2954508,
          42.469043
        ]
      },
      "id": "node/276675368"
    },
    {
      "type": "Feature",
      "properties": {
        "@id": "way/287673824",
        "building": "train_station",
        "disused:railway": "station",
        "name": "Железничка станица Сремска Рача",
        "name:sr": "Железничка станица Сремска Рача",
        "name:sr-Latn": "Železnička stanica Sremska Rača",
        "@geometry": "center"
      },
      "geometry": {
        "type": "Point",
        "coordinates": [
          19.2974657,
          44.927017
        ]
      },
      "id": "way/287673824"
    },
    {
      "type": "Feature",
      "properties": {
        "@id": "node/295392684",
        "name": "Врбас",
        "name:hu": "Verbász",
        "name:sr": "Врбас",
        "name:sr-Latn": "Vrbas",
        "operator": "ЖС",
        "public_transport": "station",
        "railway": "station"
      },
      "geometry": {
        "type": "Point",
        "coordinates": [
          19.6233725,
          45.5734156
        ]
      },
      "id": "node/295392684"
    },
    {
      "type": "Feature",
      "properties": {
        "@id": "node/301885814",
        "name": "Podgorica",
        "name:sr": "Подгорица",
        "name:sr-Latn": "Podgorica",
        "public_transport": "station",
        "railway": "station",
        "uic_ref": "7231001",
        "wheelchair": "yes",
        "wikidata": "Q3502897"
      },
      "geometry": {
        "type": "Point",
        "coordinates": [
          19.2694151,
          42.4320076
        ]
      },
      "id": "node/301885814"
    },
    {
      "type": "Feature",
      "properties": {
        "@id": "node/311774549",
        "name": "Сомбор",
        "name:hu": "Zombor",
        "name:sr": "Сомбор",
        "name:sr-Latn": "Sombor",
        "public_transport": "station",
        "railway": "station",
        "wikidata": "Q101582370"
      },
      "geometry": {
        "type": "Point",
        "coordinates": [
          19.1140701,
          45.7859981
        ]
      },
      "id": "node/311774549"
    },
    {
      "type": "Feature",
      "properties": {
        "@id": "node/311981047",
        "name": "Буковачки салаши",
        "name:hu": "Bükkszállás",
        "name:sr": "Буковачки салаши",
        "name:sr-Latn": "Bukovački salaši",
        "public_transport": "station",
        "railway": "station"
      },
      "geometry": {
        "type": "Point",
        "coordinates": [
          19.0735172,
          45.7405531
        ]
      },
      "id": "node/311981047"
    },
    {
      "type": "Feature",
      "properties": {
        "@id": "node/311987306",
        "name": "Чонопља",
        "name:de": "Tschonopel",
        "name:en": "Conoplja",
        "name:hr": "Čonoplja",
        "name:hu": "Csonoplya",
        "name:sr": "Чонопља",
        "name:sr-Latn": "Čonoplja",
        "railway": "halt"
      },
      "geometry": {
        "type": "Point",
        "coordinates": [
          19.2480173,
          45.7977291
        ]
      },
      "id": "node/311987306"
    },
    {
      "type": "Feature",
      "properties": {
        "@id": "node/311987527",
        "name": "Сивац",
        "name:hu": "Szivác",
        "name:sr": "Сивац",
        "name:sr-Latn": "Sivac",
        "railway": "station"
      },
      "geometry": {
        "type": "Point",
        "coordinates": [
          19.3779905,
          45.6931334
        ]
      },
      "id": "node/311987527"
    },
    {
      "type": "Feature",
      "properties": {
        "@id": "node/311990865",
        "name": "Кула",
        "name:en": "Kula",
        "name:hu": "Kula",
        "name:sr": "Кула",
        "name:sr-Latn": "Kula",
        "public_transport": "station",
        "railway": "station"
      },
      "geometry": {
        "type": "Point",
        "coordinates": [
          19.5152263,
          45.6044465
        ]
      },
      "id": "node/311990865"
    },
    {
      "type": "Feature",
      "properties": {
        "@id": "node/312003988",
        "name": "Бајмок",
        "name:en": "Bajmok",
        "name:hu": "Bajmok",
        "name:sr": "Бајмок",
        "name:sr-Latn": "Bajmok",
        "public_transport": "station",
        "railway": "station",
        "wheelchair": "yes"
      },
      "geometry": {
        "type": "Point",
        "coordinates": [
          19.4130931,
          45.9768382
        ]
      },
      "id": "node/312003988"
    },
    {
      "type": "Feature",
      "properties": {
        "@id": "node/312012220",
        "disused": "yes",
        "disused:railway": "station",
        "name": "Стапар",
        "name:en": "Stapar",
        "name:sr": "Стапар",
        "name:sr-Latn": "Stapar"
      },
      "geometry": {
        "type": "Point",
        "coordinates": [
          19.218392,
          45.6614521
        ]
      },
      "id": "node/312012220"
    },
    {
      "type": "Feature",
      "properties": {
        "@id": "node/312012318",
        "disused": "yes",
        "disused:railway": "station",
        "name": "Бачки Брестовац",
        "name:en": "Backi Brestovac",
        "name:hu": "Szilberek",
        "name:sr": "Бачки Брестовац",
        "name:sr-Latn": "Bački Brestovac"
      },
      "geometry": {
        "type": "Point",
        "coordinates": [
          19.2587332,
          45.6071321
        ]
      },
      "id": "node/312012318"
    },
    {
      "type": "Feature",
      "properties": {
        "@id": "node/312012490",
        "name": "Ратково",
        "name:hu": "Paripás",
        "name:sr": "Ратково",
        "name:sr-Latn": "Ratkovo",
        "public_transport": "stop_position",
        "railway": "station",
        "train": "yes"
      },
      "geometry": {
        "type": "Point",
        "coordinates": [
          19.326947,
          45.4481747
        ]
      },
      "id": "node/312012490"
    },
    {
      "type": "Feature",
      "properties": {
        "@id": "node/312012515",
        "name": "Параге",
        "name:sr": "Параге",
        "name:sr-Latn": "Parage",
        "public_transport": "stop_position",
        "railway": "halt",
        "train": "yes"
      },
      "geometry": {
        "type": "Point",
        "coordinates": [
          19.3828387,
          45.4081196
        ]
      },
      "id": "node/312012515"
    },
    {
      "type": "Feature",
      "properties": {
        "@id": "node/312012597",
        "addr:street": "Железничка",
        "name": "Гајдобра",
        "name:hu": "Szépliget",
        "name:sr": "Гајдобра",
        "name:sr-Latn": "Gajdobra",
        "public_transport": "stop_position",
        "railway": "station",
        "train": "yes"
      },
      "geometry": {
        "type": "Point",
        "coordinates": [
          19.456257,
          45.3565232
        ]
      },
      "id": "node/312012597"
    },
    {
      "type": "Feature",
      "properties": {
        "@id": "node/312014084",
        "name": "Бачки Маглић",
        "name:sr": "Бачки Маглић",
        "name:sr-Latn": "Bački Maglić",
        "railway": "station"
      },
      "geometry": {
        "type": "Point",
        "coordinates": [
          19.5364535,
          45.3517035
        ]
      },
      "id": "node/312014084"
    },
    {
      "type": "Feature",
      "properties": {
        "@id": "node/312014188",
        "name": "Футог",
        "name:hu": "Futak",
        "name:sr": "Футог",
        "name:sr-Latn": "Futog",
        "public_transport": "station",
        "railway": "station",
        "wikidata": "Q94090917"
      },
      "geometry": {
        "type": "Point",
        "coordinates": [
          19.7008112,
          45.2547257
        ]
      },
      "id": "node/312014188"
    },
    {
      "type": "Feature",
      "properties": {
        "@id": "node/312075543",
        "name": "Сонта",
        "name:sr": "Сонта",
        "name:sr-Latn": "Sonta",
        "railway": "station"
      },
      "geometry": {
        "type": "Point",
        "coordinates": [
          19.1106131,
          45.5994517
        ]
      },
      "id": "node/312075543"
    },
    {
      "type": "Feature",
      "properties": {
        "@id": "node/312075966",
        "name": "Богојево",
        "name:hu": "Gombos",
        "name:sr": "Богојево",
        "name:sr-Latn": "Bogojevo",
        "public_transport": "station",
        "railway": "station"
      },
      "geometry": {
        "type": "Point",
        "coordinates": [
          19.1038981,
          45.5447549
        ]
      },
      "id": "node/312075966"
    },
    {
      "type": "Feature",
      "properties": {
        "@id": "node/312077554",
        "name": "Богојево Село",
        "name:hu": "Gombos falu",
        "name:sr": "Богојево Село",
        "name:sr-Latn": "Bogojevo Selo",
        "public_transport": "stop_position",
        "railway": "station",
        "train": "yes"
      },
      "geometry": {
        "type": "Point",
        "coordinates": [
          19.1379638,
          45.5328745
        ]
      },
      "id": "node/312077554"
    },
    {
      "type": "Feature",
      "properties": {
        "@id": "node/312077630",
        "name": "Каравуково",
        "name:hu": "Bácsordas",
        "name:sr": "Каравуково",
        "name:sr-Latn": "Karavukovo",
        "public_transport": "stop_position",
        "railway": "station",
        "train": "yes"
      },
      "geometry": {
        "type": "Point",
        "coordinates": [
          19.2084892,
          45.5017762
        ]
      },
      "id": "node/312077630"
    },
    {
      "type": "Feature",
      "properties": {
        "@id": "node/312077730",
        "disused": "yes",
        "disused:railway": "station",
        "name": "Дероње",
        "name:de": "Dornau",
        "name:hu": "Dernye",
        "name:sr": "Дероње",
        "name:sr-Latn": "Deronje"
      },
      "geometry": {
        "type": "Point",
        "coordinates": [
          19.2123013,
          45.4571997
        ]
      },
      "id": "node/312077730"
    },
    {
      "type": "Feature",
      "properties": {
        "@id": "node/312077921",
        "disused": "yes",
        "disused:railway": "station",
        "name": "Бач",
        "name:en": "Bac",
        "name:hu": "Bács",
        "name:sr": "Бач",
        "name:sr-Latn": "Bač"
      },
      "geometry": {
        "type": "Point",
        "coordinates": [
          19.2460906,
          45.3921737
        ]
      },
      "id": "node/312077921"
    },
    {
      "type": "Feature",
      "properties": {
        "@id": "node/312078042",
        "disused": "yes",
        "disused:railway": "station",
        "name": "Товаришево",
        "name:sr": "Товаришево",
        "name:sr-Latn": "Tovariševo"
      },
      "geometry": {
        "type": "Point",
        "coordinates": [
          19.3206163,
          45.3463944
        ]
      },
      "id": "node/312078042"
    },
    {
      "type": "Feature",
      "properties": {
        "@id": "node/312078133",
        "disused": "yes",
        "disused:railway": "station",
        "name": "Обровац",
        "name:sr": "Обровац",
        "name:sr-Latn": "Obrovac"
      },
      "geometry": {
        "type": "Point",
        "coordinates": [
          19.3405202,
          45.3239387
        ]
      },
      "id": "node/312078133"
    },
    {
      "type": "Feature",
      "properties": {
        "@id": "node/312082713",
        "disused": "yes",
        "disused:railway": "station",
        "name": "Српски Милетић",
        "name:sr": "Српски Милетић",
        "name:sr-Latn": "Srpski Miletić"
      },
      "geometry": {
        "type": "Point",
        "coordinates": [
          19.1929593,
          45.5559647
        ]
      },
      "id": "node/312082713"
    },
    {
      "type": "Feature",
      "properties": {
        "@id": "node/312082747",
        "disused": "yes",
        "disused:railway": "station",
        "name": "Дорослово",
        "name:sr": "Дорослово",
        "name:sr-Latn": "Doroslovo"
      },
      "geometry": {
        "type": "Point",
        "coordinates": [
          19.1735851,
          45.6006746
        ]
      },
      "id": "node/312082747"
    },
    {
      "type": "Feature",
      "properties": {
        "@id": "node/312150046",
        "disused": "yes",
        "disused:railway": "station",
        "name": "Купусина",
        "name:hr": "Kupusina",
        "name:sr": "Купусина",
        "name:sr-Latn": "Kupusina"
      },
      "geometry": {
        "type": "Point",
        "coordinates": [
          19.0199179,
          45.7412192
        ]
      },
      "id": "node/312150046"
    },
    {
      "type": "Feature",
      "properties": {
        "@id": "node/312150068",
        "disused": "yes",
        "disused:railway": "station",
        "name": "Јосић",
        "name:sr": "Јосић",
        "name:sr-Latn": "Josić",
        "old_name": "Károlyszállás v.m."
      },
      "geometry": {
        "type": "Point",
        "coordinates": [
          19.0351877,
          45.7574768
        ]
      },
      "id": "node/312150068"
    },
    {
      "type": "Feature",
      "properties": {
        "@id": "node/312150165",
        "disused": "yes",
        "disused:railway": "station",
        "name": "Свилојево",
        "name:hu": "Szilágyi",
        "name:sr": "Свилојево",
        "name:sr-Latn": "Svilojevo"
      },
      "geometry": {
        "type": "Point",
        "coordinates": [
          19.0615658,
          45.6445515
        ]
      },
      "id": "node/312150165"
    },
    {
      "type": "Feature",
      "properties": {
        "@id": "node/312174915",
        "disused": "yes",
        "disused:railway": "station",
        "name": "Бачки Брег",
        "name:en": "Backi Breg",
        "name:hu": "Béreg",
        "name:sr": "Бачки Брег",
        "name:sr-Latn": "Bački Breg"
      },
      "geometry": {
        "type": "Point",
        "coordinates": [
          18.9365906,
          45.9202152
        ]
      },
      "id": "node/312174915"
    },
    {
      "type": "Feature",
      "properties": {
        "@id": "node/312174922",
        "disused": "yes",
        "disused:railway": "station",
        "name": "Колут",
        "name:sr": "Колут",
        "name:sr-Latn": "Kolut"
      },
      "geometry": {
        "type": "Point",
        "coordinates": [
          18.9355894,
          45.892292
        ]
      },
      "id": "node/312174922"
    },
    {
      "type": "Feature",
      "properties": {
        "@id": "node/312175054",
        "disused": "yes",
        "disused:railway": "station",
        "name": "Салаш",
        "name:sr": "Салаш",
        "name:sr-Latn": "Salaš"
      },
      "geometry": {
        "type": "Point",
        "coordinates": [
          19.0294911,
          45.792263
        ]
      },
      "id": "node/312175054"
    },
    {
      "type": "Feature",
      "properties": {
        "@id": "node/312242975",
        "disused:railway": "halt"
      },
      "geometry": {
        "type": "Point",
        "coordinates": [
          19.5966782,
          45.9953569
        ]
      },
      "id": "node/312242975"
    },
    {
      "type": "Feature",
      "properties": {
        "@id": "node/312243112",
        "disused": "yes",
        "disused:railway": "station",
        "name": "Пачир",
        "name:sr": "Пачир",
        "name:sr-Latn": "Pačir"
      },
      "geometry": {
        "type": "Point",
        "coordinates": [
          19.4523685,
          45.8889297
        ]
      },
      "id": "node/312243112"
    },
    {
      "type": "Feature",
      "properties": {
        "@id": "node/312280159",
        "name": "Mostar",
        "name:hr": "Mostar",
        "name:sr": "Мостар",
        "public_transport": "station",
        "railway": "station",
        "wikidata": "Q15206322"
      },
      "geometry": {
        "type": "Point",
        "coordinates": [
          17.813885,
          43.3489955
        ]
      },
      "id": "node/312280159"
    },
    {
      "type": "Feature",
      "properties": {
        "@id": "node/312332176",
        "name": "Оџаци Калварија",
        "name:hu": "Hódság-Kálvária",
        "name:sr": "Оџаци Калварија",
        "name:sr-Latn": "Odžaci Kalvarija",
        "public_transport": "station",
        "railway": "halt"
      },
      "geometry": {
        "type": "Point",
        "coordinates": [
          19.2551256,
          45.5106746
        ]
      },
      "id": "node/312332176"
    },
    {
      "type": "Feature",
      "properties": {
        "@id": "node/312404997",
        "name": "Žari",
        "name:sr": "Жари",
        "railway": "halt"
      },
      "geometry": {
        "type": "Point",
        "coordinates": [
          19.617934,
          42.9850094
        ]
      },
      "id": "node/312404997"
    },
    {
      "type": "Feature",
      "properties": {
        "@id": "node/312491162",
        "name": "Пријепоље",
        "name:de": "Prijepolje",
        "name:en": "Prijepolje",
        "name:sr": "Пријепоље",
        "name:sr-Latn": "Prijepolje",
        "network": "ЖС",
        "operator": "ЖС",
        "public_transport": "stop_position",
        "railway": "station",
        "train": "yes"
      },
      "geometry": {
        "type": "Point",
        "coordinates": [
          19.6399692,
          43.392852
        ]
      },
      "id": "node/312491162"
    },
    {
      "type": "Feature",
      "properties": {
        "@id": "node/312491163",
        "name": "Прибој",
        "name:sr": "Прибој",
        "name:sr-Latn": "Priboj",
        "public_transport": "stop_position",
        "railway": "station",
        "train": "yes"
      },
      "geometry": {
        "type": "Point",
        "coordinates": [
          19.5249314,
          43.5818528
        ]
      },
      "id": "node/312491163"
    },
    {
      "type": "Feature",
      "properties": {
        "@id": "way/313086695",
        "building": "train_station",
        "disused:railway": "halt",
        "name": "Ваљевски Градац",
        "name:sr": "Ваљевски Градац",
        "name:sr-Latn": "Valjevski Gradac",
        "@geometry": "center"
      },
      "geometry": {
        "type": "Point",
        "coordinates": [
          19.8615634,
          44.2290389
        ]
      },
      "id": "way/313086695"
    },
    {
      "type": "Feature",
      "properties": {
        "@id": "node/313235244",
        "name": "Барајево центар",
        "name:sr": "Барајево Центар",
        "name:sr-Latn": "Barajevo Centar",
        "public_transport": "stop_position",
        "railway": "halt",
        "train": "yes"
      },
      "geometry": {
        "type": "Point",
        "coordinates": [
          20.4121206,
          44.5772798
        ]
      },
      "id": "node/313235244"
    },
    {
      "type": "Feature",
      "properties": {
        "@id": "node/313235264",
        "name": "Вреоци",
        "name:en": "Vreoci",
        "name:sr": "Вреоци",
        "name:sr-Latn": "Vreoci",
        "railway": "station",
        "wikidata": "Q31182305",
        "wikipedia": "sr:Железничка станица Вреоци"
      },
      "geometry": {
        "type": "Point",
        "coordinates": [
          20.2794586,
          44.4489723
        ]
      },
      "id": "node/313235264"
    },
    {
      "type": "Feature",
      "properties": {
        "@id": "node/313235265",
        "name": "Лазаревац",
        "name:en": "Lazarevac",
        "name:sr": "Лазаревац",
        "name:sr-Latn": "Lazarevac",
        "public_transport": "station",
        "railway": "station",
        "wikidata": "Q31182303",
        "wikipedia": "sr:Железничка станица Лазаревац"
      },
      "geometry": {
        "type": "Point",
        "coordinates": [
          20.2454598,
          44.3848662
        ]
      },
      "id": "node/313235265"
    },
    {
      "type": "Feature",
      "properties": {
        "@id": "node/313236386",
        "addr:city": "Ruma",
        "name": "Рума",
        "name:hu": "Ruma",
        "name:sr": "Рума",
        "name:sr-Latn": "Ruma",
        "network": "Zeleznice Srbije",
        "operator": "Srbija Voz",
        "public_transport": "station",
        "railway": "station",
        "train": "yes",
        "website": "https://srbijavoz.rs"
      },
      "geometry": {
        "type": "Point",
        "coordinates": [
          19.8269889,
          44.9893798
        ]
      },
      "id": "node/313236386"
    },
    {
      "type": "Feature",
      "properties": {
        "@id": "node/315237907",
        "int_name": "Uzice",
        "name": "Ужице",
        "name:sr": "Ужице",
        "name:sr-Latn": "Užice",
        "network": "ЖС",
        "operator": "ЖС",
        "public_transport": "station",
        "railway": "station",
        "train": "yes",
        "uic_ref": "7200208",
        "wheelchair": "no"
      },
      "geometry": {
        "type": "Point",
        "coordinates": [
          19.8396941,
          43.8534481
        ]
      },
      "id": "node/315237907"
    },
    {
      "type": "Feature",
      "properties": {
        "@id": "node/315237979",
        "name": "Бранешци",
        "name:sr": "Бранешци",
        "name:sr-Latn": "Branešci",
        "public_transport": "stop_position",
        "railway": "station",
        "train": "yes",
        "wheelchair": "no"
      },
      "geometry": {
        "type": "Point",
        "coordinates": [
          19.6816796,
          43.7792339
        ]
      },
      "id": "node/315237979"
    },
    {
      "type": "Feature",
      "properties": {
        "@id": "way/355481344",
        "building": "train_station",
        "disused:railway": "halt",
        "name": "Стража",
        "name:sr": "Стража",
        "name:sr-Latn": "Straža",
        "@geometry": "center"
      },
      "geometry": {
        "type": "Point",
        "coordinates": [
          21.2913386,
          44.9739627
        ]
      },
      "id": "way/355481344"
    },
    {
      "type": "Feature",
      "properties": {
        "@id": "way/361943020",
        "building": "train_station",
        "disused:railway": "station",
        "name": "Martin Brod",
        "@geometry": "center"
      },
      "geometry": {
        "type": "Point",
        "coordinates": [
          16.1349853,
          44.4893122
        ]
      },
      "id": "way/361943020"
    },
    {
      "type": "Feature",
      "properties": {
        "@id": "way/363508442",
        "building": "train_station",
        "disused:railway": "halt",
        "name": "Buševići",
        "@geometry": "center"
      },
      "geometry": {
        "type": "Point",
        "coordinates": [
          16.0642896,
          44.601013
        ]
      },
      "id": "way/363508442"
    },
    {
      "type": "Feature",
      "properties": {
        "@id": "node/368025815",
        "name": "Књажевац",
        "name:en": "Knjazevac",
        "name:sr": "Књажевац",
        "name:sr-Latn": "Knjaževac",
        "public_transport": "station",
        "railway": "station"
      },
      "geometry": {
        "type": "Point",
        "coordinates": [
          22.2513857,
          43.5714176
        ]
      },
      "id": "node/368025815"
    },
    {
      "type": "Feature",
      "properties": {
        "@id": "node/385988319",
        "name": "Janjići",
        "railway": "halt"
      },
      "geometry": {
        "type": "Point",
        "coordinates": [
          17.9628321,
          44.1548424
        ]
      },
      "id": "node/385988319"
    },
    {
      "type": "Feature",
      "properties": {
        "@id": "way/392135041",
        "addr:housenumber": "10",
        "addr:street": "Булевар патријарха Павла",
        "building": "train_station",
        "disused:railway": "station",
        "name": "Железничка станица Кошутњак",
        "name:en": "Košutnjak Railway Station",
        "name:sr": "Железничка станица Кошутњак",
        "name:sr-Latn": "Železnička stanica Košutnjak",
        "ref:RS:kucni_broj": "3250137",
        "@geometry": "center"
      },
      "geometry": {
        "type": "Point",
        "coordinates": [
          20.4457127,
          44.7573507
        ]
      },
      "id": "way/392135041"
    },
    {
      "type": "Feature",
      "properties": {
        "@id": "way/402384653",
        "area": "yes",
        "building": "yes",
        "int_name": "Tabakovac",
        "name": "Tabakovac",
        "name:sr": "Табаковац",
        "name:sr-Latn": "Tabakovac",
        "public_transport": "station",
        "railway": "station",
        "@geometry": "center"
      },
      "geometry": {
        "type": "Point",
        "coordinates": [
          22.4140922,
          44.0577264
        ]
      },
      "id": "way/402384653"
    },
    {
      "type": "Feature",
      "properties": {
        "@id": "node/408153941",
        "name": "Стубал",
        "name:en": "Stubal",
        "name:sr": "Стубал",
        "name:sr-Latn": "Stubal",
        "railway": "halt"
      },
      "geometry": {
        "type": "Point",
        "coordinates": [
          22.0374516,
          42.6326079
        ]
      },
      "id": "node/408153941"
    },
    {
      "type": "Feature",
      "properties": {
        "@id": "node/408154508",
        "name": "Владичин Хан",
        "name:en": "Vladicin Han",
        "name:sr": "Владичин Хан",
        "name:sr-Latn": "Vladičin Han",
        "public_transport": "station",
        "railway": "station"
      },
      "geometry": {
        "type": "Point",
        "coordinates": [
          22.0621597,
          42.7102375
        ]
      },
      "id": "node/408154508"
    },
    {
      "type": "Feature",
      "properties": {
        "@id": "node/408154578",
        "name": "Шелинце",
        "name:sr": "Шелинце",
        "name:sr-Latn": "Šelince",
        "public_transport": "station",
        "railway": "halt",
        "train": "yes"
      },
      "geometry": {
        "type": "Point",
        "coordinates": [
          22.0591591,
          42.7337988
        ]
      },
      "id": "node/408154578"
    },
    {
      "type": "Feature",
      "properties": {
        "@id": "node/408156503",
        "name": "Палојска Росуља",
        "name:sr": "Палојска Росуља",
        "name:sr-Latn": "Palojska Rosulja",
        "public_transport": "station",
        "railway": "halt",
        "train": "yes"
      },
      "geometry": {
        "type": "Point",
        "coordinates": [
          22.1196968,
          42.8606831
        ]
      },
      "id": "node/408156503"
    },
    {
      "type": "Feature",
      "properties": {
        "@id": "node/408156583",
        "name": "Грделица",
        "name:en": "Grdelica",
        "name:sr": "Грделица",
        "name:sr-Latn": "Grdelica",
        "public_transport": "station",
        "railway": "station"
      },
      "geometry": {
        "type": "Point",
        "coordinates": [
          22.0572153,
          42.8955235
        ]
      },
      "id": "node/408156583"
    },
    {
      "type": "Feature",
      "properties": {
        "@id": "node/408157306",
        "name": "Дољевац",
        "name:en": "Doljevac",
        "name:sr": "Дољевац",
        "name:sr-Latn": "Doljevac",
        "public_transport": "station",
        "railway": "station"
      },
      "geometry": {
        "type": "Point",
        "coordinates": [
          21.8335793,
          43.2016555
        ]
      },
      "id": "node/408157306"
    },
    {
      "type": "Feature",
      "properties": {
        "@id": "node/408157341",
        "name": "Белотинце",
        "name:sr": "Белотинце",
        "name:sr-Latn": "Belotince",
        "public_transport": "station",
        "railway": "halt"
      },
      "geometry": {
        "type": "Point",
        "coordinates": [
          21.8418449,
          43.2646506
        ]
      },
      "id": "node/408157341"
    },
    {
      "type": "Feature",
      "properties": {
        "@id": "node/418346188",
        "name": "Bioče",
        "name:sr": "Биоче",
        "public_transport": "station",
        "railway": "station",
        "wikidata": "Q31182472"
      },
      "geometry": {
        "type": "Point",
        "coordinates": [
          19.367311,
          42.5277939
        ]
      },
      "id": "node/418346188"
    },
    {
      "type": "Feature",
      "properties": {
        "@id": "node/418346303",
        "name": "Bratonožići",
        "name:sr": "Братоножићи",
        "public_transport": "station",
        "railway": "station",
        "wikidata": "Q31182489"
      },
      "geometry": {
        "type": "Point",
        "coordinates": [
          19.3489753,
          42.5563743
        ]
      },
      "id": "node/418346303"
    },
    {
      "type": "Feature",
      "properties": {
        "@id": "node/418346401",
        "name": "Lutovo",
        "name:sr": "Лутово",
        "operator": "ŽPCG",
        "public_transport": "station",
        "railway": "station",
        "wikidata": "Q31182488"
      },
      "geometry": {
        "type": "Point",
        "coordinates": [
          19.3856978,
          42.6279981
        ]
      },
      "id": "node/418346401"
    },
    {
      "type": "Feature",
      "properties": {
        "@id": "node/420105032",
        "name": "Mojkovac",
        "name:sr": "Мојковац",
        "public_transport": "station",
        "railway": "station",
        "wikidata": "Q31182435"
      },
      "geometry": {
        "type": "Point",
        "coordinates": [
          19.5863282,
          42.9528609
        ]
      },
      "id": "node/420105032"
    },
    {
      "type": "Feature",
      "properties": {
        "@id": "node/420428656",
        "image": "https://youtu.be/4icwdyL9Xzg",
        "name": "Štitarička Rijeka",
        "name:sr": "Штитаричка Ријека",
        "railway": "halt",
        "wikidata": "Q111995724"
      },
      "geometry": {
        "type": "Point",
        "coordinates": [
          19.5723404,
          42.9289381
        ]
      },
      "id": "node/420428656"
    },
    {
      "type": "Feature",
      "properties": {
        "@id": "node/420429664",
        "name": "Oblutak",
        "name:sr": "Облутак",
        "railway": "halt",
        "wikidata": "Q111995718"
      },
      "geometry": {
        "type": "Point",
        "coordinates": [
          19.5360467,
          42.8636988
        ]
      },
      "id": "node/420429664"
    },
    {
      "type": "Feature",
      "properties": {
        "@id": "node/448550840",
        "name": "Stagovë",
        "railway": "halt"
      },
      "geometry": {
        "type": "Point",
        "coordinates": [
          21.2456185,
          42.2753967
        ]
      },
      "id": "node/448550840"
    },
    {
      "type": "Feature",
      "properties": {
        "@id": "node/448556548",
        "name": "Fushlot",
        "railway": "halt"
      },
      "geometry": {
        "type": "Point",
        "coordinates": [
          21.149144,
          42.48122
        ]
      },
      "id": "node/448556548"
    },
    {
      "type": "Feature",
      "properties": {
        "@id": "node/448559565",
        "name": "Miradi",
        "railway": "station"
      },
      "geometry": {
        "type": "Point",
        "coordinates": [
          21.0809187,
          42.6108837
        ]
      },
      "id": "node/448559565"
    },
    {
      "type": "Feature",
      "properties": {
        "@id": "node/448562007",
        "disused:railway": "station",
        "name": "Stacioni Hekurudhor Krusha e Vogël"
      },
      "geometry": {
        "type": "Point",
        "coordinates": [
          20.6648983,
          42.2968608
        ]
      },
      "id": "node/448562007"
    },
    {
      "type": "Feature",
      "properties": {
        "@id": "node/448562520",
        "name": "Qarrat",
        "public_transport": "platform",
        "railway": "station",
        "train": "yes",
        "wikidata": "Q126095318"
      },
      "geometry": {
        "type": "Point",
        "coordinates": [
          20.7484669,
          42.6046643
        ]
      },
      "id": "node/448562520"
    },
    {
      "type": "Feature",
      "properties": {
        "@id": "node/448562596",
        "name": "Ujëmir",
        "railway": "station"
      },
      "geometry": {
        "type": "Point",
        "coordinates": [
          20.6991745,
          42.6144428
        ]
      },
      "id": "node/448562596"
    },
    {
      "type": "Feature",
      "properties": {
        "@id": "node/448562697",
        "name": "Grykas",
        "railway": "halt"
      },
      "geometry": {
        "type": "Point",
        "coordinates": [
          20.7867408,
          42.6172006
        ]
      },
      "id": "node/448562697"
    },
    {
      "type": "Feature",
      "properties": {
        "@id": "node/448562824",
        "name": "Gurkat / Pograxhë",
        "public_transport": "stop_position",
        "railway": "halt",
        "train": "yes"
      },
      "geometry": {
        "type": "Point",
        "coordinates": [
          20.6401825,
          42.6287284
        ]
      },
      "id": "node/448562824"
    },
    {
      "type": "Feature",
      "properties": {
        "@id": "node/448711415",
        "name": "Kaçanik i Vjetër",
        "name:sr": "Стари Качаник",
        "railway": "halt"
      },
      "geometry": {
        "type": "Point",
        "coordinates": [
          21.2297886,
          42.3010221
        ]
      },
      "id": "node/448711415"
    },
    {
      "type": "Feature",
      "properties": {
        "@id": "node/448712433",
        "disused:railway": "halt",
        "is_in:country": "Kosovo",
        "name": "Pantina",
        "name:generic": "Railway Station Pantina",
        "name:generic:sr": "железничка станица Пантина",
        "name:short": "Pantina",
        "name:short:sr": "Пантина",
        "name:sq": "Pantinë v.ç",
        "name:sr": "железничка станица Пантина",
        "name:sr-Latn": "železnička stanica Pantina"
      },
      "geometry": {
        "type": "Point",
        "coordinates": [
          20.9142601,
          42.8416041
        ]
      },
      "id": "node/448712433"
    },
    {
      "type": "Feature",
      "properties": {
        "@id": "node/448716472",
        "name": "Јариње",
        "name:sr": "Јариње",
        "name_full_nd:sr": "Železnička Stanica Jerina",
        "name_generic:sr": "Železnička Stanica",
        "name_sort:sr": "ZELEZNICKASTANICAJERINA",
        "population": "0",
        "railway": "halt",
        "short_name:sr": "Jerina"
      },
      "geometry": {
        "type": "Point",
        "coordinates": [
          20.6969941,
          43.2118518
        ]
      },
      "id": "node/448716472"
    },
    {
      "type": "Feature",
      "properties": {
        "@id": "node/448728849",
        "disused:railway": "halt",
        "name": "Druar v.ç"
      },
      "geometry": {
        "type": "Point",
        "coordinates": [
          20.9856057,
          42.7762041
        ]
      },
      "id": "node/448728849"
    },
    {
      "type": "Feature",
      "properties": {
        "@id": "node/454501320",
        "gauge:1925-01-25-1974-03-01": "760",
        "gauge:2003-08-30-": "760",
        "name": "Мокра Гора",
        "name:sr": "Мокра Гора",
        "name:sr-Latn": "Mokra Gora",
        "public_transport": "station",
        "railway": "station",
        "railway:position": "216.2",
        "tourism": "attraction",
        "train": "yes",
        "wikidata": "Q45400941",
        "wikipedia": "sr:Железничка станица Мокра Гора"
      },
      "geometry": {
        "type": "Point",
        "coordinates": [
          19.5076139,
          43.7925424
        ]
      },
      "id": "node/454501320"
    },
    {
      "type": "Feature",
      "properties": {
        "@id": "node/470377863",
        "name": "Божурат",
        "name:sr": "Божурат",
        "name:sr-Latn": "Božurat",
        "railway": "halt"
      },
      "geometry": {
        "type": "Point",
        "coordinates": [
          22.5991023,
          43.1424706
        ]
      },
      "id": "node/470377863"
    },
    {
      "type": "Feature",
      "properties": {
        "@id": "node/470378035",
        "name": "Црквица",
        "name:sr": "Црквица",
        "name:sr-Latn": "Crkvica",
        "railway": "halt"
      },
      "geometry": {
        "type": "Point",
        "coordinates": [
          22.3611383,
          43.2257944
        ]
      },
      "id": "node/470378035"
    },
    {
      "type": "Feature",
      "properties": {
        "@id": "node/470378389",
        "name": "Рударе",
        "name:en": "Rudare",
        "name:sr": "Рударе",
        "name:sr-Latn": "Rudare",
        "public_transport": "station",
        "railway": "station"
      },
      "geometry": {
        "type": "Point",
        "coordinates": [
          21.3190869,
          43.0655468
        ]
      },
      "id": "node/470378389"
    },
    {
      "type": "Feature",
      "properties": {
        "@id": "node/470378479",
        "name": "Суково",
        "name:en": "Sukovo",
        "name:sr": "Суково",
        "name:sr-Latn": "Sukovo",
        "public_transport": "station",
        "railway": "station"
      },
      "geometry": {
        "type": "Point",
        "coordinates": [
          22.6681171,
          43.0722005
        ]
      },
      "id": "node/470378479"
    },
    {
      "type": "Feature",
      "properties": {
        "@id": "node/470378522",
        "name": "Станичење",
        "name:en": "Stanicenje",
        "name:sr": "Станичење",
        "name:sr-Latn": "Staničenje",
        "public_transport": "station",
        "railway": "halt"
      },
      "geometry": {
        "type": "Point",
        "coordinates": [
          22.5121417,
          43.2132486
        ]
      },
      "id": "node/470378522"
    },
    {
      "type": "Feature",
      "properties": {
        "@id": "node/470378625",
        "name": "Црвенчево",
        "name:en": "Crvencevo",
        "name:sr": "Црвенчево",
        "name:sr-Latn": "Crvenčevo",
        "railway": "halt"
      },
      "geometry": {
        "type": "Point",
        "coordinates": [
          22.4926206,
          43.2203256
        ]
      },
      "id": "node/470378625"
    },
    {
      "type": "Feature",
      "properties": {
        "@id": "way/474074805",
        "addr:housenumber": "3",
        "addr:street": "Бранка Радичевића",
        "building": "train_station",
        "disused:railway": "station",
        "name": "Бешка",
        "name:en": "Beska",
        "name:hu": "Béska",
        "name:sr": "Бешка",
        "name:sr-Latn": "Beška",
        "ref:RS:kucni_broj": "4257960",
        "@geometry": "center"
      },
      "geometry": {
        "type": "Point",
        "coordinates": [
          20.0515613,
          45.1330377
        ]
      },
      "id": "way/474074805"
    },
    {
      "type": "Feature",
      "properties": {
        "@id": "node/475574544",
        "name": "Сопот Космајски",
        "name:sr": "Сопот Космајски",
        "name:sr-Latn": "Sopot Kosmajski",
        "public_transport": "station",
        "railway": "station",
        "wikidata": "Q31182319",
        "wikipedia": "sr:Железничка станица Сопот Космајски"
      },
      "geometry": {
        "type": "Point",
        "coordinates": [
          20.611635,
          44.5237627
        ]
      },
      "id": "node/475574544"
    },
    {
      "type": "Feature",
      "properties": {
        "@id": "node/475574643",
        "name": "Ковачевац",
        "name:sr": "Ковачевац",
        "name:sr-Latn": "Kovačevac",
        "public_transport": "station",
        "railway": "halt"
      },
      "geometry": {
        "type": "Point",
        "coordinates": [
          20.7503274,
          44.3992415
        ]
      },
      "id": "node/475574643"
    },
    {
      "type": "Feature",
      "properties": {
        "@id": "node/475574651",
        "name": "Рабровац",
        "name:sr": "Рабровац",
        "name:sr-Latn": "Rabrovac",
        "railway": "halt"
      },
      "geometry": {
        "type": "Point",
        "coordinates": [
          20.7749796,
          44.3847484
        ]
      },
      "id": "node/475574651"
    },
    {
      "type": "Feature",
      "properties": {
        "@id": "node/475574660",
        "name": "Кусадак",
        "name:en": "Kusadak",
        "name:sr": "Кусадак",
        "name:sr-Latn": "Kusadak",
        "public_transport": "station",
        "railway": "station"
      },
      "geometry": {
        "type": "Point",
        "coordinates": [
          20.8289016,
          44.3759908
        ]
      },
      "id": "node/475574660"
    },
    {
      "type": "Feature",
      "properties": {
        "@id": "node/475574685",
        "name": "Глибовац",
        "name:sr": "Глибовац",
        "name:sr-Latn": "Glibovac",
        "public_transport": "station",
        "railway": "halt"
      },
      "geometry": {
        "type": "Point",
        "coordinates": [
          20.9052635,
          44.368487
        ]
      },
      "id": "node/475574685"
    },
    {
      "type": "Feature",
      "properties": {
        "@id": "node/475574716",
        "name": "Велика Плана",
        "name:en": "Velika Plana",
        "name:sr": "Велика Плана",
        "name:sr-Latn": "Velika Plana",
        "public_transport": "station",
        "railway": "station",
        "train": "yes"
      },
      "geometry": {
        "type": "Point",
        "coordinates": [
          21.0825983,
          44.325157
        ]
      },
      "id": "node/475574716"
    },
    {
      "type": "Feature",
      "properties": {
        "@id": "node/475574718",
        "name": "Марковац",
        "name:en": "Markovac",
        "name:sr": "Марковац",
        "name:sr-Latn": "Markovac",
        "public_transport": "station",
        "railway": "station"
      },
      "geometry": {
        "type": "Point",
        "coordinates": [
          21.0963972,
          44.2391251
        ]
      },
      "id": "node/475574718"
    },
    {
      "type": "Feature",
      "properties": {
        "@id": "node/475574750",
        "name": "Лапово Варош",
        "name:en": "Lapovo Varos",
        "name:sr": "Лапово Варош",
        "name:sr-Latn": "Lapovo Varoš",
        "public_transport": "station",
        "railway": "halt"
      },
      "geometry": {
        "type": "Point",
        "coordinates": [
          21.1025772,
          44.1865277
        ]
      },
      "id": "node/475574750"
    },
    {
      "type": "Feature",
      "properties": {
        "@id": "node/475574753",
        "name": "Лапово",
        "name:en": "Lapovo",
        "name:sr": "Лапово",
        "name:sr-Latn": "Lapovo",
        "public_transport": "station",
        "railway": "station"
      },
      "geometry": {
        "type": "Point",
        "coordinates": [
          21.1022257,
          44.1577489
        ]
      },
      "id": "node/475574753"
    },
    {
      "type": "Feature",
      "properties": {
        "@id": "node/475574783",
        "name": "Милатовац",
        "name:sr": "Милатовац",
        "name:sr-Latn": "Milatovac",
        "railway": "halt"
      },
      "geometry": {
        "type": "Point",
        "coordinates": [
          20.9833107,
          44.0899334
        ]
      },
      "id": "node/475574783"
    },
    {
      "type": "Feature",
      "properties": {
        "@id": "node/475574784",
        "disused": "yes",
        "disused:railway": "halt",
        "name": "Ресник Крагујевачки",
        "name:sr": "Ресник Крагујевачки",
        "name:sr-Latn": "Resnik Kragujevački"
      },
      "geometry": {
        "type": "Point",
        "coordinates": [
          20.9651415,
          44.1089841
        ]
      },
      "id": "node/475574784"
    },
    {
      "type": "Feature",
      "properties": {
        "@id": "node/475574786",
        "name": "Бадњевац",
        "name:sr": "Бадњевац",
        "name:sr-Latn": "Badnjevac",
        "railway": "station"
      },
      "geometry": {
        "type": "Point",
        "coordinates": [
          20.9801588,
          44.1300281
        ]
      },
      "id": "node/475574786"
    },
    {
      "type": "Feature",
      "properties": {
        "@id": "node/475574795",
        "name": "Баточина",
        "name:sr": "Баточина",
        "name:sr-Latn": "Batočina",
        "public_transport": "station",
        "railway": "station"
      },
      "geometry": {
        "type": "Point",
        "coordinates": [
          21.0752592,
          44.155588
        ]
      },
      "id": "node/475574795"
    },
    {
      "type": "Feature",
      "properties": {
        "@id": "node/475574807",
        "name": "Градац",
        "name:sr": "Градац",
        "name:sr-Latn": "Gradac",
        "railway": "station"
      },
      "geometry": {
        "type": "Point",
        "coordinates": [
          21.0216575,
          44.1464152
        ]
      },
      "id": "node/475574807"
    },
    {
      "type": "Feature",
      "properties": {
        "@id": "node/475574865",
        "disused": "yes",
        "disused:railway": "halt",
        "name": "Цветојевац",
        "name:sr": "Цветојевац",
        "name:sr-Latn": "Cvetojevac"
      },
      "geometry": {
        "type": "Point",
        "coordinates": [
          20.9860406,
          44.0711698
        ]
      },
      "id": "node/475574865"
    },
    {
      "type": "Feature",
      "properties": {
        "@id": "node/475574872",
        "name": "Јовановац",
        "name:sr": "Јовановац",
        "name:sr-Latn": "Jovanovac",
        "railway": "station"
      },
      "geometry": {
        "type": "Point",
        "coordinates": [
          20.9766929,
          44.0556424
        ]
      },
      "id": "node/475574872"
    },
    {
      "type": "Feature",
      "properties": {
        "@id": "node/475574911",
        "name": "Завод",
        "name:sr": "Завод",
        "name:sr-Latn": "Zavod",
        "railway": "halt"
      },
      "geometry": {
        "type": "Point",
        "coordinates": [
          20.9139879,
          44.0084844
        ]
      },
      "id": "node/475574911"
    },
    {
      "type": "Feature",
      "properties": {
        "@id": "node/475574941",
        "name": "Грошница",
        "name:en": "Grosnica",
        "name:sr": "Грошница",
        "name:sr-Latn": "Grošnica",
        "railway": "station"
      },
      "geometry": {
        "type": "Point",
        "coordinates": [
          20.8765475,
          43.9949038
        ]
      },
      "id": "node/475574941"
    },
    {
      "type": "Feature",
      "properties": {
        "@id": "node/475574988",
        "name": "Драгобраћа",
        "name:en": "Dragobraca",
        "name:sr": "Драгобраћа",
        "name:sr-Latn": "Dragobraća",
        "railway": "station"
      },
      "geometry": {
        "type": "Point",
        "coordinates": [
          20.8206323,
          43.9732298
        ]
      },
      "id": "node/475574988"
    },
    {
      "type": "Feature",
      "properties": {
        "@id": "node/475575027",
        "disused": "yes",
        "disused:railway": "halt",
        "name": "Вучковица",
        "name:sr": "Вучковица",
        "name:sr-Latn": "Vučkovica"
      },
      "geometry": {
        "type": "Point",
        "coordinates": [
          20.7779307,
          43.9490184
        ]
      },
      "id": "node/475575027"
    },
    {
      "type": "Feature",
      "properties": {
        "@id": "node/475575050",
        "name": "Кнић",
        "name:sr": "Кнић",
        "name:sr-Latn": "Knić",
        "railway": "station"
      },
      "geometry": {
        "type": "Point",
        "coordinates": [
          20.7485551,
          43.9329084
        ]
      },
      "id": "node/475575050"
    },
    {
      "type": "Feature",
      "properties": {
        "@id": "node/475575098",
        "name": "Гружа",
        "name:en": "Gruza",
        "name:sr": "Гружа",
        "name:sr-Latn": "Gruža",
        "railway": "station"
      },
      "geometry": {
        "type": "Point",
        "coordinates": [
          20.7678428,
          43.8923477
        ]
      },
      "id": "node/475575098"
    },
    {
      "type": "Feature",
      "properties": {
        "@id": "node/475575165",
        "name": "Губеревац",
        "name:sr": "Губеревац",
        "name:sr-Latn": "Guberevac",
        "railway": "station"
      },
      "geometry": {
        "type": "Point",
        "coordinates": [
          20.7738496,
          43.8387412
        ]
      },
      "id": "node/475575165"
    },
    {
      "type": "Feature",
      "properties": {
        "@id": "node/475575221",
        "name": "Витковац",
        "name:sr": "Витковац",
        "name:sr-Latn": "Vitkovac",
        "railway": "station"
      },
      "geometry": {
        "type": "Point",
        "coordinates": [
          20.7904669,
          43.7914417
        ]
      },
      "id": "node/475575221"
    },
    {
      "type": "Feature",
      "properties": {
        "@id": "node/475575250",
        "name": "Милавчићи",
        "name:sr": "Милавчићи",
        "name:sr-Latn": "Milavčići",
        "railway": "halt"
      },
      "geometry": {
        "type": "Point",
        "coordinates": [
          20.8055834,
          43.760698
        ]
      },
      "id": "node/475575250"
    },
    {
      "type": "Feature",
      "properties": {
        "@id": "node/475575269",
        "name": "Витановац",
        "name:sr": "Витановац",
        "name:sr-Latn": "Vitanovac",
        "railway": "station"
      },
      "geometry": {
        "type": "Point",
        "coordinates": [
          20.8016056,
          43.7270424
        ]
      },
      "id": "node/475575269"
    },
    {
      "type": "Feature",
      "properties": {
        "@id": "node/475575315",
        "name": "Шумарице",
        "name:sr": "Шумарице",
        "name:sr-Latn": "Šumarice",
        "railway": "halt"
      },
      "geometry": {
        "type": "Point",
        "coordinates": [
          20.7603541,
          43.7264159
        ]
      },
      "id": "node/475575315"
    },
    {
      "type": "Feature",
      "properties": {
        "@id": "node/475575358",
        "name": "Сирча",
        "name:sr": "Сирча",
        "name:sr-Latn": "Sirča",
        "railway": "halt"
      },
      "geometry": {
        "type": "Point",
        "coordinates": [
          20.7259507,
          43.7273789
        ]
      },
      "id": "node/475575358"
    },
    {
      "type": "Feature",
      "properties": {
        "@id": "node/475575393",
        "gauge:1910-12-04-1960": "760",
        "name": "Краљево",
        "name:de": "Kraljevo",
        "name:en": "Kraljevo",
        "name:hr": "Kraljevo",
        "name:ru": "Кралево",
        "name:sl": "Kraljevo",
        "name:sr": "Краљево",
        "name:sr-Latn": "Kraljevo",
        "public_transport": "station",
        "railway": "station",
        "railway:ref:DB": "XJKL"
      },
      "geometry": {
        "type": "Point",
        "coordinates": [
          20.6934509,
          43.72856
        ]
      },
      "id": "node/475575393"
    },
    {
      "type": "Feature",
      "properties": {
        "@id": "node/475661903",
        "name": "Матарушка Бања",
        "name:sr": "Матарушка Бања",
        "name:sr-Latn": "Mataruška Banja",
        "public_transport": "station",
        "railway": "station"
      },
      "geometry": {
        "type": "Point",
        "coordinates": [
          20.6016322,
          43.6969848
        ]
      },
      "id": "node/475661903"
    },
    {
      "type": "Feature",
      "properties": {
        "@id": "node/475661938",
        "name": "Прогорелица",
        "name:sr": "Прогорелица",
        "name:sr-Latn": "Progorelica",
        "railway": "halt"
      },
      "geometry": {
        "type": "Point",
        "coordinates": [
          20.5721815,
          43.6813495
        ]
      },
      "id": "node/475661938"
    },
    {
      "type": "Feature",
      "properties": {
        "@id": "node/475661989",
        "name": "Богутовачка Бања",
        "name:sr": "Богутовачка Бања",
        "name:sr-Latn": "Bogutovačka Banja",
        "public_transport": "station",
        "railway": "station"
      },
      "geometry": {
        "type": "Point",
        "coordinates": [
          20.5575185,
          43.6527791
        ]
      },
      "id": "node/475661989"
    },
    {
      "type": "Feature",
      "properties": {
        "@id": "node/475662311",
        "name": "Полумир",
        "name:sr": "Полумир",
        "name:sr-Latn": "Polumir",
        "railway": "station"
      },
      "geometry": {
        "type": "Point",
        "coordinates": [
          20.6099163,
          43.5329006
        ]
      },
      "id": "node/475662311"
    },
    {
      "type": "Feature",
      "properties": {
        "@id": "node/475662384",
        "name": "Пусто Поље",
        "name:sr": "Пусто Поље",
        "name:sr-Latn": "Pusto Polje",
        "railway": "halt"
      },
      "geometry": {
        "type": "Point",
        "coordinates": [
          20.6106583,
          43.4931935
        ]
      },
      "id": "node/475662384"
    },
    {
      "type": "Feature",
      "properties": {
        "@id": "node/475662451",
        "name": "Ушће",
        "name:sr": "Ушће",
        "name:sr-Latn": "Ušće",
        "public_transport": "station",
        "railway": "station"
      },
      "geometry": {
        "type": "Point",
        "coordinates": [
          20.6243013,
          43.4654872
        ]
      },
      "id": "node/475662451"
    },
    {
      "type": "Feature",
      "properties": {
        "@id": "node/475662543",
        "name": "Лозно",
        "name:sr": "Лозно",
        "name:sr-Latn": "Lozno",
        "railway": "halt"
      },
      "geometry": {
        "type": "Point",
        "coordinates": [
          20.6627275,
          43.4357983
        ]
      },
      "id": "node/475662543"
    },
    {
      "type": "Feature",
      "properties": {
        "@id": "node/475662590",
        "name": "Јошаничка Бања",
        "name:sr": "Јошаничка Бања",
        "name:sr-Latn": "Jošanička Banja",
        "railway": "station"
      },
      "geometry": {
        "type": "Point",
        "coordinates": [
          20.6589489,
          43.410719
        ]
      },
      "id": "node/475662590"
    },
    {
      "type": "Feature",
      "properties": {
        "@id": "node/475662644",
        "name": "Пискања",
        "name:sr": "Пискања",
        "name:sr-Latn": "Piskanja",
        "railway": "station"
      },
      "geometry": {
        "type": "Point",
        "coordinates": [
          20.6464813,
          43.3888535
        ]
      },
      "id": "node/475662644"
    },
    {
      "type": "Feature",
      "properties": {
        "@id": "node/475662773",
        "name": "Бревник",
        "name:sr": "Бревник",
        "name:sr-Latn": "Brevnik",
        "public_transport": "station",
        "railway": "station"
      },
      "geometry": {
        "type": "Point",
        "coordinates": [
          20.6450854,
          43.3558684
        ]
      },
      "id": "node/475662773"
    },
    {
      "type": "Feature",
      "properties": {
        "@id": "node/475662921",
        "name": "Рашка",
        "name:en": "Raska",
        "name:sr": "Рашка",
        "name:sr-Latn": "Raška",
        "public_transport": "station",
        "railway": "station"
      },
      "geometry": {
        "type": "Point",
        "coordinates": [
          20.616678,
          43.2907918
        ]
      },
      "id": "node/475662921"
    },
    {
      "type": "Feature",
      "properties": {
        "@id": "node/475662981",
        "name": "Казновићи",
        "name:sr": "Казновићи",
        "name:sr-Latn": "Kaznovići",
        "railway": "halt"
      },
      "geometry": {
        "type": "Point",
        "coordinates": [
          20.662196,
          43.2603878
        ]
      },
      "id": "node/475662981"
    },
    {
      "type": "Feature",
      "properties": {
        "@id": "node/475663057",
        "name": "Рудница",
        "name:sr": "Рудница",
        "name:sr-Latn": "Rudnica",
        "railway": "station"
      },
      "geometry": {
        "type": "Point",
        "coordinates": [
          20.6808002,
          43.2374142
        ]
      },
      "id": "node/475663057"
    },
    {
      "type": "Feature",
      "properties": {
        "@id": "node/475699682",
        "name": "Лешак",
        "name:sq": "Stacioni i Trenit i Leshakut",
        "name:sr": "Лешак",
        "name:sr-Latn": "Lešak",
        "railway": "station"
      },
      "geometry": {
        "type": "Point",
        "coordinates": [
          20.7390162,
          43.168815
        ]
      },
      "id": "node/475699682"
    },
    {
      "type": "Feature",
      "properties": {
        "@id": "node/475708790",
        "name": "Пландиште",
        "name:sr": "Пландиште",
        "name:sr-Latn": "Plandište",
        "railway": "halt"
      },
      "geometry": {
        "type": "Point",
        "coordinates": [
          20.8166181,
          43.0148166
        ]
      },
      "id": "node/475708790"
    },
    {
      "type": "Feature",
      "properties": {
        "@id": "node/476659127",
        "name": "Han i Elezit",
        "name:sq": "Han i Elezit",
        "name:sr": "Ђенерал Јанковић",
        "name:sr-Latn": "Đeneral Janković",
        "public_transport": "station",
        "railway": "station"
      },
      "geometry": {
        "type": "Point",
        "coordinates": [
          21.2941161,
          42.1494263
        ]
      },
      "id": "node/476659127"
    },
    {
      "type": "Feature",
      "properties": {
        "@id": "node/476659240",
        "name": "Lugdren",
        "public_transport": "stop_position",
        "railway": "halt",
        "train": "yes"
      },
      "geometry": {
        "type": "Point",
        "coordinates": [
          20.8258102,
          42.6308589
        ]
      },
      "id": "node/476659240"
    },
    {
      "type": "Feature",
      "properties": {
        "@id": "node/476897994",
        "addr:city": "Nova Pazova",
        "name": "Нова Пазова",
        "name:en": "Nova Pazova",
        "name:sr": "Нова Пазова",
        "name:sr-Latn": "Nova Pazova",
        "network": "Zeleznice Srbije",
        "operator": "Srbija Voz",
        "public_transport": "station",
        "railway": "station",
        "train": "yes",
        "website": "https://srbijavoz.rs",
        "wikidata": "Q15960929",
        "wikipedia": "sr:Железничка станица Нова Пазова"
      },
      "geometry": {
        "type": "Point",
        "coordinates": [
          20.2100069,
          44.9376742
        ]
      },
      "id": "node/476897994"
    },
    {
      "type": "Feature",
      "properties": {
        "@id": "way/479928991",
        "abandoned:railway": "station",
        "building": "train_station",
        "name": "Željeznička stanica Dovlići",
        "name:sr": "Железничка станица Довлићи",
        "name:sr-Latn": "Železnička stanica Dovlići",
        "wikidata": "Q64850072",
        "@geometry": "center"
      },
      "geometry": {
        "type": "Point",
        "coordinates": [
          18.4953895,
          43.8314792
        ]
      },
      "id": "way/479928991"
    },
    {
      "type": "Feature",
      "properties": {
        "@id": "node/490682564",
        "disused": "yes",
        "disused:railway": "station"
      },
      "geometry": {
        "type": "Point",
        "coordinates": [
          16.6053744,
          44.9154116
        ]
      },
      "id": "node/490682564"
    },
    {
      "type": "Feature",
      "properties": {
        "@id": "node/490682571",
        "disused": "yes",
        "disused:railway": "station"
      },
      "geometry": {
        "type": "Point",
        "coordinates": [
          16.6159503,
          44.9417262
        ]
      },
      "id": "node/490682571"
    },
    {
      "type": "Feature",
      "properties": {
        "@id": "way/512035790",
        "building": "train_station",
        "disused:railway": "station",
        "name": "Kulen Vakuf",
        "@geometry": "center"
      },
      "geometry": {
        "type": "Point",
        "coordinates": [
          16.0840829,
          44.5604698
        ]
      },
      "id": "way/512035790"
    },
    {
      "type": "Feature",
      "properties": {
        "@id": "node/514745097",
        "name": "Petkovac",
        "public_transport": "stop_position",
        "railway": "halt",
        "train": "yes"
      },
      "geometry": {
        "type": "Point",
        "coordinates": [
          16.4977253,
          45.035568
        ]
      },
      "id": "node/514745097"
    },
    {
      "type": "Feature",
      "properties": {
        "@id": "node/523213074",
        "name": "Смедеревска Паланка",
        "public_transport": "station",
        "railway": "station"
      },
      "geometry": {
        "type": "Point",
        "coordinates": [
          20.959777,
          44.3628409
        ]
      },
      "id": "node/523213074"
    },
    {
      "type": "Feature",
      "properties": {
        "@id": "node/537077259",
        "disused": "yes",
        "disused:railway": "station",
        "name": "Željeznička stanica Stari Ilijaš"
      },
      "geometry": {
        "type": "Point",
        "coordinates": [
          18.2648108,
          43.9471297
        ]
      },
      "id": "node/537077259"
    },
    {
      "type": "Feature",
      "properties": {
        "@id": "node/552820285",
        "addr:city": "Zemun",
        "name": "Земун",
        "name:de": "Semlin",
        "name:en": "Zemun",
        "name:hu": "Zimony",
        "name:sr": "Земун",
        "name:sr-Latn": "Zemun",
        "network": "Zeleznice Srbije",
        "operator": "Srbija Voz",
        "public_transport": "station",
        "railway": "station",
        "train": "yes",
        "uic_name": "Zemun",
        "website": "https://srbijavoz.rs",
        "wikidata": "Q3098106",
        "wikipedia": "sr:Железничка станица Земун"
      },
      "geometry": {
        "type": "Point",
        "coordinates": [
          20.3717998,
          44.8367127
        ]
      },
      "id": "node/552820285"
    },
    {
      "type": "Feature",
      "properties": {
        "@id": "way/576350194",
        "building": "train_station",
        "name": "Jablanica Grad",
        "public_transport": "station",
        "railway": "halt",
        "train": "yes",
        "@geometry": "center"
      },
      "geometry": {
        "type": "Point",
        "coordinates": [
          17.7637652,
          43.65278
        ]
      },
      "id": "way/576350194"
    },
    {
      "type": "Feature",
      "properties": {
        "@id": "node/582753882",
        "name": "Nemila",
        "railway": "station"
      },
      "geometry": {
        "type": "Point",
        "coordinates": [
          17.9083031,
          44.3257729
        ]
      },
      "id": "node/582753882"
    },
    {
      "type": "Feature",
      "properties": {
        "@id": "way/638598441",
        "building": "train_station",
        "disused:railway": "station",
        "name": "Željeznička stanica Una",
        "name:sr": "Жељезничка станица Уна",
        "@geometry": "center"
      },
      "geometry": {
        "type": "Point",
        "coordinates": [
          16.1436327,
          44.4253849
        ]
      },
      "id": "way/638598441"
    },
    {
      "type": "Feature",
      "properties": {
        "@id": "way/638598442",
        "building": "train_station",
        "disused:railway": "station",
        "name": "Bos. Osredci - Srb",
        "name:sr": "Бос. Осредци - Срб",
        "@geometry": "center"
      },
      "geometry": {
        "type": "Point",
        "coordinates": [
          16.1561268,
          44.3849792
        ]
      },
      "id": "way/638598442"
    },
    {
      "type": "Feature",
      "properties": {
        "@id": "way/665822037",
        "abandoned:railway": "station",
        "building": "train_station",
        "name": "stara Željeznička stanica Dub",
        "@geometry": "center"
      },
      "geometry": {
        "type": "Point",
        "coordinates": [
          19.0498375,
          43.7191195
        ]
      },
      "id": "way/665822037"
    },
    {
      "type": "Feature",
      "properties": {
        "@id": "way/679609278",
        "building": "train_station",
        "disused:railway": "station",
        "name": "Šamac",
        "name:bs": "Šamac",
        "name:hr": "Bosanski Šamac",
        "name:sr": "Шамац",
        "name:sr-Latn": "Šamac",
        "railway": "yard",
        "@geometry": "center"
      },
      "geometry": {
        "type": "Point",
        "coordinates": [
          18.4720122,
          45.0525574
        ]
      },
      "id": "way/679609278"
    },
    {
      "type": "Feature",
      "properties": {
        "@id": "way/681504515",
        "building": "train_station",
        "disused:railway": "station",
        "name": "Željeznička stanica Bijeljina",
        "name:sr": "Железничка станица Бијељина",
        "@geometry": "center"
      },
      "geometry": {
        "type": "Point",
        "coordinates": [
          19.2153265,
          44.7667736
        ]
      },
      "id": "way/681504515"
    },
    {
      "type": "Feature",
      "properties": {
        "@id": "way/686317433",
        "building": "train_station",
        "building:use": "commercial",
        "disused:railway": "station",
        "loc_name": "Дунав станица",
        "loc_name:sr": "Дунав станица",
        "loc_name:sr-Latn": "Dunav stanica",
        "name": "Железничка станица Београд Дунав",
        "name:en": "Belgrade Danube Railway Station",
        "name:sr": "Железничка станица Београд Дунав",
        "name:sr-Latn": "Železnička stanica Beograd Dunav",
        "@geometry": "center"
      },
      "geometry": {
        "type": "Point",
        "coordinates": [
          20.4805914,
          44.819253
        ]
      },
      "id": "way/686317433"
    },
    {
      "type": "Feature",
      "properties": {
        "@id": "way/686317437",
        "addr:housenumber": "3",
        "addr:street": "Дунавска",
        "building": "train_station",
        "building:use": "apartments",
        "disused:railway": "station",
        "name": "Железничка станица Београд Доњи град",
        "name:en": "Belgrade Lower Town Railway Station",
        "name:sr": "Железничка станица Београд Доњи град",
        "name:sr-Latn": "Železnička stanica Beograd Donji grad",
        "ref:RS:kucni_broj": "3211049",
        "@geometry": "center"
      },
      "geometry": {
        "type": "Point",
        "coordinates": [
          20.4581357,
          44.8286957
        ]
      },
      "id": "way/686317437"
    },
    {
      "type": "Feature",
      "properties": {
        "@id": "way/687195721",
        "building": "yes",
        "description": "Stara železnička stanica koja odavno ne radi.",
        "disused:public_transport": "station",
        "disused:railway": "station",
        "name": "Stara železnička stanica",
        "train": "no",
        "@geometry": "center"
      },
      "geometry": {
        "type": "Point",
        "coordinates": [
          21.0464524,
          45.2462288
        ]
      },
      "id": "way/687195721"
    },
    {
      "type": "Feature",
      "properties": {
        "@id": "way/704157947",
        "addr:housenumber": "2",
        "addr:street": "Стевана Сремца",
        "building": "train_station",
        "disused:railway": "station",
        "heritage": "2",
        "heritage:RS:inscription_date": "2004-11-18",
        "heritage:RS:jurisdiction": "Међуопштински завод за заштиту споменика културе Суботица",
        "heritage:RS:name": "Железничка станица Хоргош - Камараш",
        "heritage:website": "https://nasledje.gov.rs/index.cfm/spomenici/pregled_spomenika?spomenik_id=105491",
        "name": "Железничка станица Хоргош - Камараш",
        "name:hu": "Horgos-Kamaras vasútállomás",
        "name:sr": "Железничка станица Хоргош - Камараш",
        "name:sr-Latn": "Železnička stanica Horgoš - Kamaraš",
        "protect_class": "22",
        "ref:RS:kucni_broj": "6213163",
        "ref:RS:nkd": "SK1802",
        "start_date": "1887",
        "wikidata": "Q85994321",
        "wikipedia": "sr:Железничка станица Хоргош - Камараш",
        "@geometry": "center"
      },
      "geometry": {
        "type": "Point",
        "coordinates": [
          19.9581097,
          46.1558416
        ]
      },
      "id": "way/704157947"
    },
    {
      "type": "Feature",
      "properties": {
        "@id": "way/704264032",
        "building": "train_station",
        "name": "Doboj",
        "name:bs": "Doboj",
        "name:bs-Cyrl": "Добој",
        "name:hr": "Doboj",
        "name:sr": "Добој",
        "name:sr-Latn": "Doboj",
        "operator": "Željeznice Republike Srpske",
        "public_transport": "station",
        "railway": "station",
        "railway:ref:DB": "ZBDO",
        "train": "yes",
        "@geometry": "center"
      },
      "geometry": {
        "type": "Point",
        "coordinates": [
          18.0967554,
          44.724677
        ]
      },
      "id": "way/704264032"
    },
    {
      "type": "Feature",
      "properties": {
        "@id": "node/708674537",
        "gauge:1911-01-14-1979-06-30": "760",
        "name": "Зајечар",
        "name:bg": "Зайчар",
        "name:de": "Zaječar",
        "name:en": "Zajecar",
        "name:ro": "Zăiceari",
        "name:ru": "Заечар",
        "name:sr": "Зајечар",
        "name:sr-Latn": "Zaječar",
        "old_name:de": "Zatitscher",
        "public_transport": "station",
        "railway": "station",
        "train": "yes"
      },
      "geometry": {
        "type": "Point",
        "coordinates": [
          22.2729177,
          43.9048878
        ]
      },
      "id": "node/708674537"
    },
    {
      "type": "Feature",
      "properties": {
        "@id": "way/710332818",
        "building": "train_station",
        "disused:railway": "station",
        "name": "Железничка станица Вишњићево",
        "@geometry": "center"
      },
      "geometry": {
        "type": "Point",
        "coordinates": [
          19.2808701,
          44.9647622
        ]
      },
      "id": "way/710332818"
    },
    {
      "type": "Feature",
      "properties": {
        "@id": "way/710332821",
        "building": "train_station",
        "disused:railway": "station",
        "name": "Железничка станица Моровић",
        "@geometry": "center"
      },
      "geometry": {
        "type": "Point",
        "coordinates": [
          19.2290342,
          45.0133979
        ]
      },
      "id": "way/710332821"
    },
    {
      "type": "Feature",
      "properties": {
        "@id": "way/710332822",
        "addr:housenumber": "112",
        "addr:street": "Железничка",
        "building": "train_station",
        "disused:railway": "station",
        "name": "Железничка станица Адашевци",
        "ref:RS:kucni_broj": "4403229",
        "@geometry": "center"
      },
      "geometry": {
        "type": "Point",
        "coordinates": [
          19.2117504,
          45.084817
        ]
      },
      "id": "way/710332822"
    },
    {
      "type": "Feature",
      "properties": {
        "@id": "way/710342780",
        "building": "train_station",
        "disused:railway": "station",
        "name": "Željeznička stanica Dvorovi",
        "name:sr": "Железничка станица Дворовињ",
        "@geometry": "center"
      },
      "geometry": {
        "type": "Point",
        "coordinates": [
          19.2606002,
          44.8122681
        ]
      },
      "id": "way/710342780"
    },
    {
      "type": "Feature",
      "properties": {
        "@id": "way/710520414",
        "building": "train_station",
        "name": "Čapljina",
        "public_transport": "station",
        "railway": "station",
        "@geometry": "center"
      },
      "geometry": {
        "type": "Point",
        "coordinates": [
          17.6980807,
          43.109809
        ]
      },
      "id": "way/710520414"
    },
    {
      "type": "Feature",
      "properties": {
        "@id": "way/718020223",
        "building": "train_station",
        "disused:railway": "station",
        "name": "Bosanski Drenovac",
        "@geometry": "center"
      },
      "geometry": {
        "type": "Point",
        "coordinates": [
          16.216881,
          44.2231966
        ]
      },
      "id": "way/718020223"
    },
    {
      "type": "Feature",
      "properties": {
        "@id": "way/741674788",
        "abandoned:railway": "station",
        "building": "yes",
        "@geometry": "center"
      },
      "geometry": {
        "type": "Point",
        "coordinates": [
          22.6178885,
          44.1847602
        ]
      },
      "id": "way/741674788"
    },
    {
      "type": "Feature",
      "properties": {
        "@id": "way/751734589",
        "abandoned:railway": "station",
        "building": "train_station",
        "name": "stara Železnička stanica Stambolčić",
        "name:sr": "Железничка стамболчић",
        "name:sr-Latn": "stara Železnička stanica Stambolčić",
        "@geometry": "center"
      },
      "geometry": {
        "type": "Point",
        "coordinates": [
          18.6353434,
          43.7920302
        ]
      },
      "id": "way/751734589"
    },
    {
      "type": "Feature",
      "properties": {
        "@id": "way/752741275",
        "abandoned:railway": "station",
        "building": "train_station",
        "name": "Željeznička stanica Sjetlina",
        "@geometry": "center"
      },
      "geometry": {
        "type": "Point",
        "coordinates": [
          18.6810345,
          43.7706411
        ]
      },
      "id": "way/752741275"
    },
    {
      "type": "Feature",
      "properties": {
        "@id": "way/767630947",
        "building": "yes",
        "disused:railway": "station",
        "name": "Мокрање",
        "name:en": "Mokranje",
        "@geometry": "center"
      },
      "geometry": {
        "type": "Point",
        "coordinates": [
          22.6034967,
          44.1566927
        ]
      },
      "id": "way/767630947"
    },
    {
      "type": "Feature",
      "properties": {
        "@id": "way/777267774",
        "building": "yes",
        "name": "Railway Station",
        "public_transport": "station",
        "railway": "station",
        "train": "yes",
        "@geometry": "center"
      },
      "geometry": {
        "type": "Point",
        "coordinates": [
          20.6400669,
          42.6288809
        ]
      },
      "id": "way/777267774"
    },
    {
      "type": "Feature",
      "properties": {
        "@id": "way/779920219",
        "addr:housenumber": "3",
        "addr:street": "Милоша Обилића",
        "building": "train_station",
        "name": "Пригревица",
        "name:hu": "Bácsszentiván;Priglevicza-Szt.-Iván",
        "name:sr": "Пригревица",
        "name:sr-Latn": "Prigrevica",
        "public_transport": "station",
        "railway": "station",
        "ref:RS:kucni_broj": "4336661",
        "@geometry": "center"
      },
      "geometry": {
        "type": "Point",
        "coordinates": [
          19.097023,
          45.6758724
        ]
      },
      "id": "way/779920219"
    },
    {
      "type": "Feature",
      "properties": {
        "@id": "way/788196760",
        "addr:city": "Kaçanik",
        "addr:street": "Skenderbeu",
        "building": "yes",
        "name": "Kaçanik",
        "name:sr": "Качаник",
        "network": "http://www.trainkos.com",
        "public_transport": "station",
        "railway": "station",
        "train": "yes",
        "@geometry": "center"
      },
      "geometry": {
        "type": "Point",
        "coordinates": [
          21.2552997,
          42.2331093
        ]
      },
      "id": "way/788196760"
    },
    {
      "type": "Feature",
      "properties": {
        "@id": "way/813970594",
        "building": "train_station",
        "name": "Hadžići",
        "public_transport": "station",
        "railway": "station",
        "train": "yes",
        "@geometry": "center"
      },
      "geometry": {
        "type": "Point",
        "coordinates": [
          18.2005567,
          43.820786
        ]
      },
      "id": "way/813970594"
    },
    {
      "type": "Feature",
      "properties": {
        "@id": "node/828147818",
        "contact:phone": "019542069",
        "name": "Неготин",
        "name:sr": "Неготин",
        "name:sr-Latn": "Negotin",
        "public_transport": "station",
        "railway": "station"
      },
      "geometry": {
        "type": "Point",
        "coordinates": [
          22.5401173,
          44.2289345
        ]
      },
      "id": "node/828147818"
    },
    {
      "type": "Feature",
      "properties": {
        "@id": "way/870339125",
        "abandoned:railway": "station",
        "building": "train_station",
        "name": "Željeznička stanica Ustiprača",
        "@geometry": "center"
      },
      "geometry": {
        "type": "Point",
        "coordinates": [
          19.0893707,
          43.6906527
        ]
      },
      "id": "way/870339125"
    },
    {
      "type": "Feature",
      "properties": {
        "@id": "node/873481420",
        "disused:railway": "halt",
        "name": "Lukavac Tvornica"
      },
      "geometry": {
        "type": "Point",
        "coordinates": [
          18.5305693,
          44.5317794
        ]
      },
      "id": "node/873481420"
    },
    {
      "type": "Feature",
      "properties": {
        "@id": "way/885122998",
        "addr:city": "Бачка Паланка",
        "addr:housenumber": "6",
        "addr:postcode": "21400",
        "addr:street": "Прво железничко насеље",
        "building": "train_station",
        "disused:railway": "station",
        "name": "Стара железничка станица",
        "name:sr": "Стара железничка станица",
        "name:sr-Latn": "Stara železnička stanica",
        "@geometry": "center"
      },
      "geometry": {
        "type": "Point",
        "coordinates": [
          19.379283,
          45.2478714
        ]
      },
      "id": "way/885122998"
    },
    {
      "type": "Feature",
      "properties": {
        "@id": "way/885964089",
        "addr:city": "Апатин",
        "addr:housenumber": "1",
        "addr:postcode": "25260",
        "addr:street": "Железничка",
        "building": "train_station",
        "disused:railway": "station",
        "name": "Апатин",
        "name:en": "Apatin",
        "name:sr": "Апатин",
        "name:sr-Latn": "Apatin",
        "@geometry": "center"
      },
      "geometry": {
        "type": "Point",
        "coordinates": [
          18.972528,
          45.6757306
        ]
      },
      "id": "way/885964089"
    },
    {
      "type": "Feature",
      "properties": {
        "@id": "node/893439322",
        "name": "Суботица",
        "name:hu": "Szabadka",
        "name:pl": "Subotica",
        "name:sr": "Суботица",
        "name:sr-Latn": "Subotica",
        "network": "ЖС",
        "operator": "ЖС",
        "public_transport": "station",
        "railway": "station",
        "railway:ref": "SUB",
        "train": "yes",
        "uic_ref": "7200203"
      },
      "geometry": {
        "type": "Point",
        "coordinates": [
          19.6712504,
          46.1019634
        ]
      },
      "id": "node/893439322"
    },
    {
      "type": "Feature",
      "properties": {
        "@id": "node/893439898",
        "int_name": "Subotica predgradje",
        "name": "Суботица предграђе",
        "name:hu": "Szabadka",
        "name:sr": "Суботица предграђе",
        "name:sr-Latn": "Subotica predgrađe",
        "public_transport": "station",
        "railway": "halt"
      },
      "geometry": {
        "type": "Point",
        "coordinates": [
          19.6388919,
          46.1091658
        ]
      },
      "id": "node/893439898"
    },
    {
      "type": "Feature",
      "properties": {
        "@id": "node/903852270",
        "name": "Poljavnice",
        "railway": "halt"
      },
      "geometry": {
        "type": "Point",
        "coordinates": [
          16.3885396,
          45.0649888
        ]
      },
      "id": "node/903852270"
    },
    {
      "type": "Feature",
      "properties": {
        "@id": "node/904182383",
        "name": "Палић",
        "name:hu": "Palics",
        "name:sr": "Палић",
        "name:sr-Latn": "Palić",
        "operator": "Железнице Србије",
        "public_transport": "station",
        "railway": "station",
        "uic_name": "Palic",
        "uic_ref": "7223704"
      },
      "geometry": {
        "type": "Point",
        "coordinates": [
          19.7605979,
          46.1034122
        ]
      },
      "id": "node/904182383"
    },
    {
      "type": "Feature",
      "properties": {
        "@id": "node/904629837",
        "name": "Dobrljin",
        "railway": "station"
      },
      "geometry": {
        "type": "Point",
        "coordinates": [
          16.4777692,
          45.1524478
        ]
      },
      "id": "node/904629837"
    },
    {
      "type": "Feature",
      "properties": {
        "@id": "node/906002114",
        "disused": "yes",
        "disused:railway": "station",
        "int_name": "Plandiste",
        "name": "Пландиште",
        "name:hu": "Zichyfalva",
        "name:sr": "Пландиште",
        "name:sr-Latn": "Plandište"
      },
      "geometry": {
        "type": "Point",
        "coordinates": [
          21.1131609,
          45.2272683
        ]
      },
      "id": "node/906002114"
    },
    {
      "type": "Feature",
      "properties": {
        "@id": "node/907141616",
        "name": "Сента",
        "name:hu": "Zenta",
        "name:sr": "Сента",
        "name:sr-Latn": "Senta",
        "operator": "ЖС",
        "public_transport": "station",
        "railway": "station",
        "start_date": "1889"
      },
      "geometry": {
        "type": "Point",
        "coordinates": [
          20.071685,
          45.9296815
        ]
      },
      "id": "node/907141616"
    },
    {
      "type": "Feature",
      "properties": {
        "@id": "node/907340405",
        "name": "Petrov Gaj",
        "railway": "halt"
      },
      "geometry": {
        "type": "Point",
        "coordinates": [
          16.8401879,
          44.9154943
        ]
      },
      "id": "node/907340405"
    },
    {
      "type": "Feature",
      "properties": {
        "@id": "node/907524376",
        "name": "Omarska",
        "name:en": "Omarska",
        "public_transport": "station",
        "railway": "station"
      },
      "geometry": {
        "type": "Point",
        "coordinates": [
          16.8977961,
          44.8878361
        ]
      },
      "id": "node/907524376"
    },
    {
      "type": "Feature",
      "properties": {
        "@id": "node/909917229",
        "name": "Potkozarje",
        "railway": "station"
      },
      "geometry": {
        "type": "Point",
        "coordinates": [
          17.0658421,
          44.9158901
        ]
      },
      "id": "node/909917229"
    },
    {
      "type": "Feature",
      "properties": {
        "@id": "node/910625585",
        "name": "Donja Svodna",
        "railway": "halt"
      },
      "geometry": {
        "type": "Point",
        "coordinates": [
          16.5363138,
          45.0367556
        ]
      },
      "id": "node/910625585"
    },
    {
      "type": "Feature",
      "properties": {
        "@id": "node/910630074",
        "name": "Svodna",
        "name:botanical": "Svodna",
        "name:sr": "Сводна",
        "railway": "station"
      },
      "geometry": {
        "type": "Point",
        "coordinates": [
          16.553471,
          45.0294586
        ]
      },
      "id": "node/910630074"
    },
    {
      "type": "Feature",
      "properties": {
        "@id": "node/914365837",
        "disused:railway": "station",
        "name": "Bosanska Kamenica",
        "name:sr": "Босанска Каменица",
        "name:sr-Latn": "Bosanska Kamenica"
      },
      "geometry": {
        "type": "Point",
        "coordinates": [
          16.3261623,
          44.3901859
        ]
      },
      "id": "node/914365837"
    },
    {
      "type": "Feature",
      "properties": {
        "@id": "node/914366315",
        "disused:railway": "station",
        "name": "Hrnjadi",
        "name:sr": "Хрњади",
        "name:sr-Latn": "Hrnjadi"
      },
      "geometry": {
        "type": "Point",
        "coordinates": [
          16.2536796,
          44.4119
        ]
      },
      "id": "node/914366315"
    },
    {
      "type": "Feature",
      "properties": {
        "@id": "node/914366768",
        "disused:railway": "station",
        "name": "Vaganj"
      },
      "geometry": {
        "type": "Point",
        "coordinates": [
          16.2674069,
          44.338246
        ]
      },
      "id": "node/914366768"
    },
    {
      "type": "Feature",
      "properties": {
        "@id": "node/917840934",
        "gauge:1954-1966-11-05": "760",
        "name": "Čelebići",
        "name:hr": "Čelebići",
        "public_transport": "station",
        "railway": "station",
        "train": "yes"
      },
      "geometry": {
        "type": "Point",
        "coordinates": [
          17.8970388,
          43.6832687
        ]
      },
      "id": "node/917840934"
    },
    {
      "type": "Feature",
      "properties": {
        "@id": "node/917857695",
        "name": "Ovčari",
        "name:hr": "Ovčari",
        "public_transport": "station",
        "railway": "station"
      },
      "geometry": {
        "type": "Point",
        "coordinates": [
          17.9864535,
          43.6687797
        ]
      },
      "id": "node/917857695"
    },
    {
      "type": "Feature",
      "properties": {
        "@id": "node/917857714",
        "gauge:1891-08-01-1966-11-05": "760",
        "name": "Bradina",
        "public_transport": "station",
        "railway": "station",
        "train": "yes",
        "wikidata": "Q125912225"
      },
      "geometry": {
        "type": "Point",
        "coordinates": [
          18.0158823,
          43.7423629
        ]
      },
      "id": "node/917857714"
    },
    {
      "type": "Feature",
      "properties": {
        "@id": "node/917857723",
        "name": "Grad",
        "public_transport": "station",
        "railway": "station"
      },
      "geometry": {
        "type": "Point",
        "coordinates": [
          18.0050684,
          43.6796241
        ]
      },
      "id": "node/917857723"
    },
    {
      "type": "Feature",
      "properties": {
        "@id": "node/918408895",
        "name": "Raštelica",
        "railway": "station"
      },
      "geometry": {
        "type": "Point",
        "coordinates": [
          18.0724375,
          43.7815829
        ]
      },
      "id": "node/918408895"
    },